[
  {
    "city": "Zabrze",
    "lat": "50.3086154",
    "lon": "18.7863749"
  },
  {
    "city": "Piotrków Trybunalski",
    "lat": "51.4128540",
    "lon": "19.6886837"
  },
  {
    "city": "Grudziądz",
    "lat": "53.4725120",
    "lon": "18.7618937"
  },
  {
    "city": "Tczew",
    "lat": "54.0908762",
    "lon": "18.7779435"
  },
  {
    "city": "Radom",
    "lat": "51.4167270",
    "lon": "21.1607392"
  },
  {
    "city": "Chelmno",
    "lat": "53.3493915",
    "lon": "18.4235473"
  },
  {
    "city": "Żarnowiec",
    "lat": "50.4832713",
    "lon": "19.8624200"
  }
]